{
    "spots": [
        {
            "category": "movie",
            "lat": 24.8192076,
            "lng": 121.0273486,
            "name": "百老匯影城",
            "address": null,
            "status": "verified",
            "region": "新竹縣竹北市",
            "confirms": 7,
            "issues": 11,
            "id": 1
        },
        {
            "category": "laundry",
            "lat": 24.789509,
            "lng": 121.015574,
            "name": null,
            "address": null,
            "status": "verified",
            "region": "宜蘭縣",
            "confirms": 2,
            "issues": 0,
            "id": 2
        },
        {
            "category": "movie",
            "lat": 25.0444955,
            "lng": 121.5587103,
            "name": null,
            "address": null,
            "status": "verified",
            "region": "台北市",
            "confirms": 25,
            "issues": 3,
            "id": 3
        },
        {
            "category": "movie",
            "lat": 25.0444955,
            "lng": 121.5587103,
            "name": "台北市松菸",
            "address": "台北市松菸旁邊秀泰影城入口 往右邊走道走進去 站在玻璃門前面",
            "status": "verified",
            "region": "台北市",
            "confirms": 16,
            "issues": 0,
            "id": 4
        },
        {
            "category": "movie",
            "lat": 25.058926,
            "lng": 121.448915,
            "name": "宏匯廣場全家便利商店",
            "address": "靠近全家櫃台",
            "status": "verified",
            "region": "新北市新莊區",
            "confirms": 0,
            "issues": 5,
            "id": 5
        },
        {
            "category": "movie",
            "lat": 25.199464,
            "lng": 121.437678,
            "name": null,
            "address": null,
            "status": "verified",
            "region": "新北市淡水區",
            "confirms": 0,
            "issues": 1,
            "id": 6
        },
        {
            "category": "movie",
            "lat": 25.044185,
            "lng": 121.561147,
            "name": null,
            "address": null,
            "status": "verified",
            "region": "台北市",
            "confirms": 2,
            "issues": 1,
            "id": 7
        },
        {
            "category": "park",
            "lat": 22.8632358,
            "lng": 120.2674178,
            "name": "路竹體育公園",
            "address": "高雄市路竹區社南里",
            "status": "verified",
            "region": "高雄市路竹區",
            "confirms": 0,
            "issues": 0,
            "id": 8
        },
        {
            "category": "restaurant",
            "lat": 23.458666,
            "lng": 120.285352,
            "name": "多那之門口",
            "address": null,
            "status": "verified",
            "region": "嘉義縣朴子市",
            "confirms": 1,
            "issues": 0,
            "id": 9
        },
        {
            "category": "park",
            "lat": 22.870895,
            "lng": 120.2671214,
            "name": "一甲公園",
            "address": "一甲公園靠近信義路178巷",
            "status": "verified",
            "region": "高雄市路竹區",
            "confirms": 0,
            "issues": 0,
            "id": 10
        },
        {
            "category": "minimart",
            "lat": 22.865369,
            "lng": 120.265303,
            "name": "停車場出入口",
            "address": "高雄市路竹區潭墘路47號",
            "status": "verified",
            "region": "高雄市路竹區",
            "confirms": 1,
            "issues": 0,
            "id": 11
        },
        {
            "category": "park",
            "lat": 23.466946,
            "lng": 120.414946,
            "name": "228公園",
            "address": null,
            "status": "verified",
            "region": "嘉義市西區",
            "confirms": 0,
            "issues": 0,
            "id": 12
        },
        {
            "category": "station",
            "lat": 24.1140558,
            "lng": 120.6400953,
            "name": "捷運九張犁站",
            "address": "捷運九張犁站",
            "status": "verified",
            "region": "台中市烏日區",
            "confirms": 0,
            "issues": 0,
            "id": 13
        },
        {
            "category": "bus",
            "lat": 24.135939,
            "lng": 120.636565,
            "name": "黎明路一段",
            "address": "永春東交叉口",
            "status": "verified",
            "region": "台中市南屯區",
            "confirms": 0,
            "issues": 0,
            "id": 14
        },
        {
            "category": "ramen",
            "lat": 24.143282,
            "lng": 120.625847,
            "name": "龍富路4段",
            "address": "龍富路4段",
            "status": "verified",
            "region": "台中市南屯區",
            "confirms": 0,
            "issues": 0,
            "id": 15
        },
        {
            "category": "sweetshop",
            "lat": 24.884441,
            "lng": 121.286933,
            "name": "大溪國小側門，對面是“大溪羽球紀念碑”涼亭",
            "address": "桃園市大溪區登籠路58號",
            "status": "verified",
            "region": "桃園市大溪區",
            "confirms": 0,
            "issues": 0,
            "id": 16
        },
        {
            "category": "bus",
            "lat": 24.2751154,
            "lng": 120.780279,
            "name": null,
            "address": null,
            "status": "verified",
            "region": "台中市石岡區",
            "confirms": 0,
            "issues": 0,
            "id": 17
        },
        {
            "category": "minimart",
            "lat": 24.274981,
            "lng": 120.7822504,
            "name": "加油站旁",
            "address": null,
            "status": "verified",
            "region": "台中市石岡區",
            "confirms": 0,
            "issues": 0,
            "id": 18
        },
        {
            "category": "bridge",
            "lat": 24.274594,
            "lng": 120.786676,
            "name": "東豐綠色走廊、情人木橋",
            "address": null,
            "status": "verified",
            "region": "台中市石岡區",
            "confirms": 0,
            "issues": 0,
            "id": 19
        },
        {
            "category": "hotel",
            "lat": 24.9724223,
            "lng": 121.2494661,
            "name": "金樺飯店",
            "address": "320桃園市中壢區長興街55巷1號",
            "status": "verified",
            "region": "桃園市中壢區",
            "confirms": 0,
            "issues": 0,
            "id": 20
        },
        {
            "category": "forest",
            "lat": 24.251951,
            "lng": 120.575825,
            "name": "臺中市沙鹿區三民路",
            "address": "臺中市沙鹿區 中清路七段、三民路 待轉格",
            "status": "verified",
            "region": "台中市沙鹿區",
            "confirms": 0,
            "issues": 0,
            "id": 21
        },
        {
            "category": "curry",
            "lat": 25.02789,
            "lng": 121.521652,
            "name": "古亭sukiya",
            "address": "100臺北市中正區羅斯福路二段50號",
            "status": "verified",
            "region": "台北市中正區",
            "confirms": 1,
            "issues": 0,
            "id": 22
        },
        {
            "category": "forest",
            "lat": 24.9921301,
            "lng": 121.4923146,
            "name": "錦和高中圍牆",
            "address": "新北市中和區圓通路252巷",
            "status": "verified",
            "region": "新北市中和區",
            "confirms": 1,
            "issues": 0,
            "id": 23
        },
        {
            "category": "waterside",
            "lat": 24.968049,
            "lng": 121.291899,
            "name": "國際路一段",
            "address": "速邁樂加油站附近",
            "status": "verified",
            "region": "桃園市八德區",
            "confirms": 0,
            "issues": 0,
            "id": 24
        },
        {
            "category": "park",
            "lat": 25.039342,
            "lng": 121.51565,
            "name": "外交部",
            "address": null,
            "status": "verified",
            "region": "臺北市中正區",
            "confirms": 0,
            "issues": 0,
            "id": 25
        },
        {
            "category": "bus",
            "lat": 24.144521,
            "lng": 120.624542,
            "name": "馬自達南台中門市",
            "address": "台中市南屯區向上路三段501",
            "status": "verified",
            "region": "台中市南屯區",
            "confirms": 0,
            "issues": 0,
            "id": 26
        },
        {
            "category": "electronics",
            "lat": 23.479527,
            "lng": 120.434201,
            "name": "明日之星遊樂園",
            "address": "嘉義市西區友愛路146號",
            "status": "verified",
            "region": "嘉義市西區",
            "confirms": 0,
            "issues": 0,
            "id": 27
        },
        {
            "category": "minimart",
            "lat": 24.811072,
            "lng": 120.961433,
            "name": "國光街停車場旁",
            "address": null,
            "status": "verified",
            "region": "新竹市北區",
            "confirms": 0,
            "issues": 0,
            "id": 28
        },
        {
            "category": "laundry",
            "lat": 25.01865,
            "lng": 121.42146,
            "name": null,
            "address": null,
            "status": "verified",
            "region": "新北市新莊區",
            "confirms": 0,
            "issues": 0,
            "id": 29
        },
        {
            "category": "laundry",
            "lat": 25.0403781,
            "lng": 121.5396023,
            "name": null,
            "address": null,
            "status": "verified",
            "region": "台北市大安區",
            "confirms": 1,
            "issues": 0,
            "id": 30
        },
        {
            "category": "hairsalon",
            "lat": 25.0250013,
            "lng": 121.4187841,
            "name": "BONBON WEDDING 上賓國際有限公司",
            "address": "剪刀純點",
            "status": "verified",
            "region": "新北市新莊區",
            "confirms": 0,
            "issues": 0,
            "id": 31
        },
        {
            "category": "sushi",
            "lat": 25.0866483,
            "lng": 121.5226078,
            "name": null,
            "address": null,
            "status": "verified",
            "region": "台北市",
            "confirms": 0,
            "issues": 0,
            "id": 32
        },
        {
            "category": "italian",
            "lat": 24.4366845,
            "lng": 118.3148357,
            "name": null,
            "address": "金門縣金寧鄉珠浦西路",
            "status": "verified",
            "region": "金門縣金寧鄉",
            "confirms": 0,
            "issues": 0,
            "id": 33
        },
        {
            "category": "cafe",
            "lat": 22.602814,
            "lng": 120.398143,
            "name": "彰銀大發分局轉角",
            "address": "鳳林三路344巷 往戶政",
            "status": "verified",
            "region": "高雄市大寮區",
            "confirms": 1,
            "issues": 0,
            "id": 34
        },
        {
            "category": "roadside",
            "lat": 25.083818,
            "lng": 121.457114,
            "name": "長安街267巷24弄",
            "address": null,
            "status": "verified",
            "region": "新北市蘆洲區",
            "confirms": 0,
            "issues": 0,
            "id": 35
        },
        {
            "category": "bus",
            "lat": 25.078267,
            "lng": 121.469064,
            "name": "中山二路",
            "address": "Con早餐店前",
            "status": "verified",
            "region": "蘆洲區",
            "confirms": 0,
            "issues": 0,
            "id": 36
        },
        {
            "category": "roadside",
            "lat": 24.981949,
            "lng": 121.53387,
            "name": null,
            "address": null,
            "status": "verified",
            "region": "新北市新店區",
            "confirms": 0,
            "issues": 0,
            "id": 37
        },
        {
            "category": "cafe",
            "lat": 23.978165,
            "lng": 121.595506,
            "name": "國風國中",
            "address": "正門口",
            "status": "verified",
            "region": "花蓮市",
            "confirms": 0,
            "issues": 0,
            "id": 38
        },
        {
            "category": "laundry",
            "lat": 23.902514,
            "lng": 120.689481,
            "name": "縣政府員工停車場",
            "address": "南投縣南投市三和一路11號",
            "status": "verified",
            "region": "南投縣南投市",
            "confirms": 0,
            "issues": 0,
            "id": 39
        },
        {
            "category": "university",
            "lat": 24.969208,
            "lng": 121.187748,
            "name": "中央大學側門",
            "address": "桃園市中壢區大享街",
            "status": "verified",
            "region": "桃園市中壢區",
            "confirms": 1,
            "issues": 0,
            "id": 40
        },
        {
            "category": "library",
            "lat": 23.95043,
            "lng": 120.694953,
            "name": "中興高中",
            "address": "南投縣南投市中學路2號",
            "status": "verified",
            "region": "南投縣南投市",
            "confirms": 0,
            "issues": 0,
            "id": 41
        },
        {
            "category": "park",
            "lat": 23.949332,
            "lng": 120.696487,
            "name": "中興會堂",
            "address": "南投縣南投市光榮北路1號",
            "status": "verified",
            "region": "南投縣南投市",
            "confirms": 0,
            "issues": 0,
            "id": 42
        },
        {
            "category": "restaurant",
            "lat": 22.858191,
            "lng": 120.2651,
            "name": "藍泉加水站",
            "address": "高雄市路竹區智仁街262號",
            "status": "verified",
            "region": "高雄市路竹區",
            "confirms": 0,
            "issues": 0,
            "id": 43
        },
        {
            "category": "pharmacy",
            "lat": 24.945943,
            "lng": 121.227846,
            "name": "林森國小旁",
            "address": "桃園市中壢區執信一街",
            "status": "verified",
            "region": "桃園市中壢區",
            "confirms": 0,
            "issues": 0,
            "id": 44
        },
        {
            "category": "restaurant",
            "lat": 22.857121,
            "lng": 120.263027,
            "name": "雞肉焿の的家",
            "address": "高雄市路竹區中興路283號",
            "status": "verified",
            "region": "高雄市路竹區",
            "confirms": 0,
            "issues": 0,
            "id": 45
        },
        {
            "category": "postoffice",
            "lat": 24.948169,
            "lng": 121.226814,
            "name": "中壢東興郵局後方",
            "address": "桃園市中壢區力行街",
            "status": "verified",
            "region": "桃園市中壢區",
            "confirms": 2,
            "issues": 0,
            "id": 46
        },
        {
            "category": "supermarket",
            "lat": 24.9512,
            "lng": 121.231293,
            "name": "信義國小大門",
            "address": "桃園市中壢區成都路",
            "status": "verified",
            "region": "桃園市中壢區",
            "confirms": 0,
            "issues": 0,
            "id": 47
        },
        {
            "category": "bus",
            "lat": 24.949857,
            "lng": 121.230451,
            "name": "東興國中正門",
            "address": "桃園市中壢區衡陽街",
            "status": "verified",
            "region": "桃園市中壢區",
            "confirms": 0,
            "issues": 0,
            "id": 48
        },
        {
            "category": "ramen",
            "lat": 24.949565,
            "lng": 121.228434,
            "name": "東興國中側門",
            "address": "桃園市中壢區吉安街",
            "status": "verified",
            "region": "桃園市中壢區",
            "confirms": 1,
            "issues": 0,
            "id": 49
        },
        {
            "category": "forest",
            "lat": 24.949775,
            "lng": 121.228343,
            "name": "東興國中側門",
            "address": "桃園市中壢區吉安街",
            "status": "verified",
            "region": "桃園市中壢區",
            "confirms": 1,
            "issues": 0,
            "id": 50
        },
        {
            "category": "bus",
            "lat": 22.854561,
            "lng": 120.258804,
            "name": "雙紅經典復刻紅茶",
            "address": "紅茶店前面",
            "status": "verified",
            "region": "高雄市路竹區",
            "confirms": 0,
            "issues": 0,
            "id": 51
        },
        {
            "category": "clothesstore",
            "lat": 22.86117,
            "lng": 120.25487,
            "name": "文北里",
            "address": "路竹區建國路196巷58號",
            "status": "verified",
            "region": "高雄市路竹區",
            "confirms": 0,
            "issues": 0,
            "id": 52
        },
        {
            "category": "pharmacy",
            "lat": 22.858123,
            "lng": 120.255552,
            "name": "文化路178巷",
            "address": "文化路跟文化路178巷交叉口",
            "status": "verified",
            "region": "高雄市路竹區",
            "confirms": 0,
            "issues": 0,
            "id": 53
        },
        {
            "category": "waterside",
            "lat": 24.9972923,
            "lng": 121.5183384,
            "name": "178鮮肉包",
            "address": "234新北市永和區民族街178巷口號",
            "status": "verified",
            "region": "新北市永和區",
            "confirms": 0,
            "issues": 0,
            "id": 54
        },
        {
            "category": "library",
            "lat": 22.855951,
            "lng": 120.25845,
            "name": "高雄市立圖書館路竹分館",
            "address": "路竹圖書館後面機車停車區",
            "status": "verified",
            "region": "高雄市路竹區",
            "confirms": 0,
            "issues": 0,
            "id": 55
        },
        {
            "category": "sweetshop",
            "lat": 23.4422,
            "lng": 120.2455,
            "name": "馳名串燒",
            "address": "大學路一段及正大路一段路口",
            "status": "verified",
            "region": "嘉義縣民雄鄉",
            "confirms": 0,
            "issues": 0,
            "id": 56
        },
        {
            "category": "bus",
            "lat": 23.499504,
            "lng": 120.3711,
            "name": "真自然健康管理學院",
            "address": null,
            "status": "verified",
            "region": "嘉義縣太保市",
            "confirms": 0,
            "issues": 0,
            "id": 57
        },
        {
            "category": "waterside",
            "lat": 25.011072,
            "lng": 121.318127,
            "name": "桃林步道水邊",
            "address": "鐵柵欄附近那區都是水邊純點",
            "status": "verified",
            "region": "桃園市桃園區",
            "confirms": 0,
            "issues": 0,
            "id": 58
        },
        {
            "category": "clothesstore",
            "lat": 23.064848,
            "lng": 120.215744,
            "name": null,
            "address": "安和路五段171巷131號（反光鏡旁）",
            "status": "verified",
            "region": "台南市安南區",
            "confirms": 0,
            "issues": 0,
            "id": 59
        },
        {
            "category": "pharmacy",
            "lat": 22.652278,
            "lng": 120.323322,
            "name": "新民路菜市場",
            "address": "高雄市三民區新民路116號",
            "status": "verified",
            "region": "高雄市三民區",
            "confirms": 0,
            "issues": 0,
            "id": 60
        },
        {
            "category": "restaurant",
            "lat": 22.638158,
            "lng": 120.350723,
            "name": "酥香居",
            "address": null,
            "status": "verified",
            "region": "高雄市鳳山區青年路二段253號",
            "confirms": 0,
            "issues": 0,
            "id": 61
        },
        {
            "category": "park",
            "lat": 25.004679,
            "lng": 121.454482,
            "name": "浮洲公園",
            "address": "220新北市板橋區僑中一街80巷/公園內很多地方都是純點",
            "status": "verified",
            "region": "新北市板橋區",
            "confirms": 0,
            "issues": 0,
            "id": 62
        },
        {
            "category": "park",
            "lat": 24.129963,
            "lng": 120.657993,
            "name": null,
            "address": "三民西路293號/站在藏韻的招牌前",
            "status": "verified",
            "region": "台中市南區",
            "confirms": 0,
            "issues": 0,
            "id": 63
        },
        {
            "category": "restaurant",
            "lat": 23.600979,
            "lng": 120.453967,
            "name": "嘉義縣大林",
            "address": "中山路17巷34號門口",
            "status": "verified",
            "region": "嘉義縣大林",
            "confirms": 0,
            "issues": 0,
            "id": 64
        },
        {
            "category": "airport",
            "lat": 25.064599,
            "lng": 121.546757,
            "name": "松山機場",
            "address": "民族東路",
            "status": "verified",
            "region": "台北",
            "confirms": 0,
            "issues": 0,
            "id": 65
        },
        {
            "category": "airport",
            "lat": 25.068185,
            "lng": 121.54033,
            "name": "松山機場",
            "address": "民族東路",
            "status": "verified",
            "region": "台北",
            "confirms": 0,
            "issues": 0,
            "id": 66
        },
        {
            "category": "library",
            "lat": 25.0211818,
            "lng": 121.5304958,
            "name": null,
            "address": "辛亥路1段與辛亥路1段77巷口",
            "status": "verified",
            "region": "台北市大安區",
            "confirms": 0,
            "issues": 0,
            "id": 67
        },
        {
            "category": "minimart",
            "lat": 24.170447,
            "lng": 120.655867,
            "name": null,
            "address": null,
            "status": "verified",
            "region": "台中市西屯區",
            "confirms": 0,
            "issues": 0,
            "id": 68
        },
        {
            "category": "pharmacy",
            "lat": 23.009381,
            "lng": 120.226224,
            "name": null,
            "address": "台南市北區開元路394巷61弄1號",
            "status": "verified",
            "region": "台南市北區",
            "confirms": 0,
            "issues": 0,
            "id": 69
        },
        {
            "category": "university",
            "lat": 23.569101,
            "lng": 120.495024,
            "name": "南華大學 學海堂",
            "address": "南華路一段55號 整棟樓範圍都是",
            "status": "verified",
            "region": "嘉義縣大林鎮",
            "confirms": 0,
            "issues": 0,
            "id": 70
        },
        {
            "category": "stadium",
            "lat": 23.9784592,
            "lng": 121.5952692,
            "name": "國風國中",
            "address": "970花蓮縣花蓮市林政街7號",
            "status": "verified",
            "region": "花蓮縣花蓮市",
            "confirms": 0,
            "issues": 0,
            "id": 71
        },
        {
            "category": "restaurant",
            "lat": 24.1162,
            "lng": 120.6813251,
            "name": "益民路2段",
            "address": "台中市大里區益民路2段(廚師帽子)",
            "status": "verified",
            "region": "台中市大里區",
            "confirms": 0,
            "issues": 0,
            "id": 72
        },
        {
            "category": "university",
            "lat": 24.1196,
            "lng": 120.6741251,
            "name": "中興大學",
            "address": "靠近校內的機械系實習工廠",
            "status": "verified",
            "region": "台中市南區",
            "confirms": 0,
            "issues": 0,
            "id": 73
        },
        {
            "category": "airport",
            "lat": 25.070116,
            "lng": 121.538589,
            "name": "飛機巷",
            "address": "看景台旁",
            "status": "verified",
            "region": "台北市松山區",
            "confirms": 0,
            "issues": 0,
            "id": 74
        },
        {
            "category": "roadside",
            "lat": 25.039189,
            "lng": 121.516784,
            "name": "中正區外交部",
            "address": null,
            "status": "verified",
            "region": "臺北市",
            "confirms": 0,
            "issues": 0,
            "id": 75
        },
        {
            "category": "bus",
            "lat": 23.8959161,
            "lng": 120.3671618,
            "name": "近金華鐵板燒",
            "address": "彰化縣二林鎮信義路邊",
            "status": "verified",
            "region": "彰化縣",
            "confirms": 0,
            "issues": 0,
            "id": 76
        },
        {
            "category": "postoffice",
            "lat": 23.9004761,
            "lng": 120.3652722,
            "name": "二林飛鴿",
            "address": "斗苑路五段路邊",
            "status": "verified",
            "region": "彰化縣二林鎮",
            "confirms": 0,
            "issues": 0,
            "id": 77
        },
        {
            "category": "bus",
            "lat": 23.4394758,
            "lng": 120.453773,
            "name": "全家中埔雙興店",
            "address": "全家便利商店中埔雙興店旁",
            "status": "verified",
            "region": "嘉義縣中埔鄉",
            "confirms": 0,
            "issues": 0,
            "id": 78
        },
        {
            "category": "stadium",
            "lat": 25.0485599,
            "lng": 121.6179815,
            "name": "白雲國小",
            "address": "弘道街",
            "status": "verified",
            "region": "新北市汐止區",
            "confirms": 0,
            "issues": 0,
            "id": 79
        },
        {
            "category": "waterside",
            "lat": 24.828486,
            "lng": 120.962941,
            "name": null,
            "address": "公道五路四段521-531號",
            "status": "verified",
            "region": "新竹市北區",
            "confirms": 0,
            "issues": 0,
            "id": 80
        },
        {
            "category": "roadside",
            "lat": 24.827637,
            "lng": 120.965838,
            "name": null,
            "address": "公道五路四段金雅西街路口",
            "status": "verified",
            "region": "新竹市北區",
            "confirms": 0,
            "issues": 0,
            "id": 81
        },
        {
            "category": "ramen",
            "lat": 24.580477,
            "lng": 120.824719,
            "name": "迪奧百貨實業社",
            "address": "苗栗縣苗栗市中華路419號",
            "status": "verified",
            "region": "苗栗市",
            "confirms": 0,
            "issues": 0,
            "id": 82
        },
        {
            "category": "roadside",
            "lat": 22.3739375,
            "lng": 113.9884375,
            "name": "青山公路-掃管笏段",
            "address": "屯門出九龍方向公路",
            "status": "verified",
            "region": "香港屯門區",
            "confirms": 0,
            "issues": 0,
            "id": 83
        },
        {
            "category": "movie",
            "lat": 22.645658,
            "lng": 120.30252,
            "name": null,
            "address": "台灣高雄市三民區十全二路8號",
            "status": "verified",
            "region": "高雄市三民區",
            "confirms": 9,
            "issues": 2,
            "id": 84
        },
        {
            "category": "waterside",
            "lat": 24.253558,
            "lng": 120.728521,
            "name": null,
            "address": "台中市豐原區文化街",
            "status": "verified",
            "region": "台中市豐原區",
            "confirms": 0,
            "issues": 0,
            "id": 85
        },
        {
            "category": "supermarket",
            "lat": 23.709892,
            "lng": 120.444936,
            "name": "警察局",
            "address": null,
            "status": "verified",
            "region": "雲林虎尾",
            "confirms": 0,
            "issues": 0,
            "id": 86
        },
        {
            "category": "park",
            "lat": 24.910241,
            "lng": 121.159925,
            "name": "陽明公園",
            "address": "陽明公園靠近金山街192號",
            "status": "verified",
            "region": "桃園市楊梅區",
            "confirms": 0,
            "issues": 0,
            "id": 87
        },
        {
            "category": "university",
            "lat": 25.0359765,
            "lng": 121.3837844,
            "name": "長庚大學",
            "address": "振興路下去一點點就到了",
            "status": "verified",
            "region": "桃園市龜山區",
            "confirms": 6,
            "issues": 0,
            "id": 88
        },
        {
            "category": "park",
            "lat": 24.910417,
            "lng": 121.15861,
            "name": null,
            "address": null,
            "status": "verified",
            "region": "桃園市楊梅區",
            "confirms": 0,
            "issues": 0,
            "id": 89
        },
        {
            "category": "roadside",
            "lat": 25.054327,
            "lng": 121.456451,
            "name": "維修診所",
            "address": "新莊區中原路93號",
            "status": "verified",
            "region": "新莊區",
            "confirms": 1,
            "issues": 0,
            "id": 90
        },
        {
            "category": "forest",
            "lat": 24.9997995,
            "lng": 121.5416817,
            "name": "台電萬隆聯合辦公大樓",
            "address": "116臺北市文山區景隆街21號",
            "status": "verified",
            "region": "台北文山區",
            "confirms": 1,
            "issues": 1,
            "id": 91
        },
        {
            "category": "forest",
            "lat": 24.940077,
            "lng": 121.372831,
            "name": "北大國小側門",
            "address": null,
            "status": "verified",
            "region": "新北市",
            "confirms": 1,
            "issues": 0,
            "id": 92
        },
        {
            "category": "airport",
            "lat": 25.066232,
            "lng": 121.565501,
            "name": "撫遠街",
            "address": "近 撫遠街403巷 與 撫遠街交叉口",
            "status": "verified",
            "region": "台北市",
            "confirms": 4,
            "issues": 0,
            "id": 93
        },
        {
            "category": "italian",
            "lat": 25.0227227,
            "lng": 121.5390896,
            "name": "大安區",
            "address": "和平東路二段76巷跟96巷交叉口",
            "status": "verified",
            "region": "台北市",
            "confirms": 2,
            "issues": 0,
            "id": 94
        },
        {
            "category": "park",
            "lat": 22.6398996,
            "lng": 120.3082507,
            "name": "龍江公園附近",
            "address": "很曬的路",
            "status": "verified",
            "region": "高雄市三民區",
            "confirms": 0,
            "issues": 0,
            "id": 95
        },
        {
            "category": "sweetshop",
            "lat": 23.985258,
            "lng": 121.601666,
            "name": "日本媽媽點心坊 (あめり屋)",
            "address": "970花蓮縣花蓮市延平街74巷",
            "status": "verified",
            "region": "花蓮市",
            "confirms": 0,
            "issues": 3,
            "id": 96
        },
        {
            "category": "park",
            "lat": 24.08479,
            "lng": 120.535814,
            "name": "忠權健康公園",
            "address": "彰化縣彰化市自立街89號對面的公園裡",
            "status": "verified",
            "region": "彰化市",
            "confirms": 0,
            "issues": 0,
            "id": 97
        },
        {
            "category": "electronics",
            "lat": 22.725224,
            "lng": 120.349883,
            "name": "燦坤",
            "address": null,
            "status": "verified",
            "region": "高雄市大社區",
            "confirms": 1,
            "issues": 0,
            "id": 98
        },
        {
            "category": "park",
            "lat": 25.021575,
            "lng": 121.451227,
            "name": "守護女神",
            "address": null,
            "status": "verified",
            "region": "新北市板橋區",
            "confirms": 0,
            "issues": 0,
            "id": 99
        },
        {
            "category": "park",
            "lat": 25.057163,
            "lng": 121.483397,
            "name": "公園純點",
            "address": "三重朝陽街60號",
            "status": "verified",
            "region": "新北市三重區",
            "confirms": 0,
            "issues": 0,
            "id": 100
        },
        {
            "category": "park",
            "lat": 24.747595,
            "lng": 121.760917,
            "name": null,
            "address": "宜蘭市女中路二段",
            "status": "verified",
            "region": "宜蘭縣",
            "confirms": 0,
            "issues": 1,
            "id": 101
        },
        {
            "category": "cafe",
            "lat": 24.742098,
            "lng": 121.748832,
            "name": null,
            "address": "宜蘭市擺厘里",
            "status": "verified",
            "region": "宜蘭縣",
            "confirms": 1,
            "issues": 0,
            "id": 102
        },
        {
            "category": "bakery",
            "lat": 24.9697878,
            "lng": 121.3299863,
            "name": null,
            "address": null,
            "status": "verified",
            "region": "新北市鶯歌區",
            "confirms": 0,
            "issues": 0,
            "id": 103
        },
        {
            "category": "hotel",
            "lat": 25.0614,
            "lng": 121.293,
            "name": "MIMI HOTEL",
            "address": "桃園市蘆竹區長興路一段100號及六福路十字路口",
            "status": "verified",
            "region": "桃園市蘆竹區",
            "confirms": 0,
            "issues": 0,
            "id": 104
        },
        {
            "category": "clothesstore",
            "lat": 25.0307797,
            "lng": 121.4289598,
            "name": "彰化銀行南新莊分行",
            "address": "242新北市新莊區中正路657-1號",
            "status": "verified",
            "region": "新北市新莊區",
            "confirms": 0,
            "issues": 0,
            "id": 105
        },
        {
            "category": "postoffice",
            "lat": 25.047155,
            "lng": 121.464916,
            "name": null,
            "address": null,
            "status": "verified",
            "region": "新北市新莊區",
            "confirms": 0,
            "issues": 0,
            "id": 106
        },
        {
            "category": "postoffice",
            "lat": 25.046726,
            "lng": 121.460068,
            "name": null,
            "address": null,
            "status": "verified",
            "region": "新北市新莊區",
            "confirms": 2,
            "issues": 0,
            "id": 107
        },
        {
            "category": "supermarket",
            "lat": 24.7126029,
            "lng": 120.9025662,
            "name": "全聯公義店",
            "address": null,
            "status": "verified",
            "region": "苗栗縣竹南鎮",
            "confirms": 1,
            "issues": 0,
            "id": 108
        },
        {
            "category": "hamburger",
            "lat": 24.6933584,
            "lng": 120.9151455,
            "name": "頭份交流道",
            "address": null,
            "status": "verified",
            "region": "苗栗縣頭份市",
            "confirms": 0,
            "issues": 0,
            "id": 109
        },
        {
            "category": "roadside",
            "lat": 25.088712,
            "lng": 121.48379,
            "name": "路邊純點",
            "address": "新北市蘆洲區復興路340巷巷子",
            "status": "verified",
            "region": "新北市蘆洲區",
            "confirms": 0,
            "issues": 0,
            "id": 110
        },
        {
            "category": "roadside",
            "lat": 25.091153,
            "lng": 121.484056,
            "name": "路邊純點",
            "address": "新北市蘆洲區復興路360號紅綠燈附近",
            "status": "verified",
            "region": "新北市蘆洲區",
            "confirms": 0,
            "issues": 0,
            "id": 111
        },
        {
            "category": "bridge",
            "lat": 24.748912,
            "lng": 121.095183,
            "name": "竹林大橋",
            "address": "新竹縣竹東鎮竹林大橋",
            "status": "verified",
            "region": "新竹縣",
            "confirms": 1,
            "issues": 0,
            "id": 112
        },
        {
            "category": "roadside",
            "lat": 25.066139,
            "lng": 121.56612,
            "name": "撫遠街304巷",
            "address": null,
            "status": "verified",
            "region": "台北市",
            "confirms": 0,
            "issues": 0,
            "id": 113
        },
        {
            "category": "bus",
            "lat": 23.460514,
            "lng": 120.238824,
            "name": "朴子國中",
            "address": null,
            "status": "verified",
            "region": "嘉義縣朴子市",
            "confirms": 0,
            "issues": 0,
            "id": 114
        },
        {
            "category": "hairsalon",
            "lat": 23.670678,
            "lng": 120.47434,
            "name": "肌動",
            "address": null,
            "status": "verified",
            "region": "雲林縣",
            "confirms": 0,
            "issues": 0,
            "id": 115
        },
        {
            "category": "park",
            "lat": 22.572031,
            "lng": 120.356193,
            "name": null,
            "address": null,
            "status": "verified",
            "region": "高雄市小港區",
            "confirms": 0,
            "issues": 0,
            "id": 116
        },
        {
            "category": "ramen",
            "lat": 22.569978,
            "lng": 120.352607,
            "name": null,
            "address": null,
            "status": "verified",
            "region": "高雄市小港區",
            "confirms": 0,
            "issues": 0,
            "id": 117
        },
        {
            "category": "park",
            "lat": 22.570666,
            "lng": 120.350114,
            "name": null,
            "address": null,
            "status": "verified",
            "region": "高雄市小港區",
            "confirms": 0,
            "issues": 0,
            "id": 118
        },
        {
            "category": "clothesstore",
            "lat": 22.566992,
            "lng": 120.350913,
            "name": null,
            "address": null,
            "status": "verified",
            "region": "高雄市小港區",
            "confirms": 1,
            "issues": 0,
            "id": 119
        },
        {
            "category": "ramen",
            "lat": 22.566341,
            "lng": 120.349553,
            "name": null,
            "address": null,
            "status": "verified",
            "region": "高雄市小港區",
            "confirms": 0,
            "issues": 0,
            "id": 120
        },
        {
            "category": "minimart",
            "lat": 22.564261,
            "lng": 120.347687,
            "name": null,
            "address": null,
            "status": "verified",
            "region": "高雄市小港區",
            "confirms": 0,
            "issues": 0,
            "id": 121
        },
        {
            "category": "park",
            "lat": 22.560485,
            "lng": 120.351206,
            "name": null,
            "address": null,
            "status": "verified",
            "region": "高雄市小港區",
            "confirms": 0,
            "issues": 0,
            "id": 122
        },
        {
            "category": "park",
            "lat": 22.561594,
            "lng": 120.354744,
            "name": null,
            "address": null,
            "status": "verified",
            "region": "高雄市小港區",
            "confirms": 0,
            "issues": 0,
            "id": 123
        },
        {
            "category": "restaurant",
            "lat": 22.559337,
            "lng": 120.354299,
            "name": null,
            "address": null,
            "status": "verified",
            "region": "高雄市小港區",
            "confirms": 0,
            "issues": 0,
            "id": 124
        },
        {
            "category": "forest",
            "lat": 23.469902,
            "lng": 120.24299,
            "name": null,
            "address": null,
            "status": "verified",
            "region": "嘉義縣朴子市",
            "confirms": 0,
            "issues": 0,
            "id": 125
        },
        {
            "category": "park",
            "lat": 23.462876,
            "lng": 120.230454,
            "name": null,
            "address": null,
            "status": "verified",
            "region": "嘉義縣朴子市",
            "confirms": 0,
            "issues": 0,
            "id": 126
        },
        {
            "category": "bus",
            "lat": 23.464424,
            "lng": 120.23448,
            "name": "朴子醫院",
            "address": null,
            "status": "verified",
            "region": "嘉義縣朴子市",
            "confirms": 0,
            "issues": 0,
            "id": 127
        },
        {
            "category": "roadside",
            "lat": 23.458144,
            "lng": 120.23646,
            "name": null,
            "address": null,
            "status": "verified",
            "region": "嘉義縣朴子市",
            "confirms": 0,
            "issues": 0,
            "id": 128
        },
        {
            "category": "minimart",
            "lat": 23.459735,
            "lng": 120.242179,
            "name": null,
            "address": null,
            "status": "verified",
            "region": "嘉義縣朴子市",
            "confirms": 0,
            "issues": 0,
            "id": 129
        },
        {
            "category": "park",
            "lat": 23.462846,
            "lng": 120.247928,
            "name": null,
            "address": null,
            "status": "verified",
            "region": "嘉義縣朴子市",
            "confirms": 0,
            "issues": 0,
            "id": 130
        },
        {
            "category": "pharmacy",
            "lat": 23.463387,
            "lng": 120.249441,
            "name": null,
            "address": null,
            "status": "verified",
            "region": "嘉義縣朴子市",
            "confirms": 0,
            "issues": 0,
            "id": 131
        },
        {
            "category": "park",
            "lat": 23.465811922466177,
            "lng": 120.24807035923004,
            "name": "朴子國小",
            "address": null,
            "status": "verified",
            "region": "嘉義縣朴子市",
            "confirms": 0,
            "issues": 0,
            "id": 132
        },
        {
            "category": "restaurant",
            "lat": 23.459750010858727,
            "lng": 120.2416115999222,
            "name": null,
            "address": null,
            "status": "verified",
            "region": "嘉義縣朴子市",
            "confirms": 0,
            "issues": 0,
            "id": 133
        },
        {
            "category": "bus",
            "lat": 25.074639,
            "lng": 121.378476,
            "name": "選手村拱門",
            "address": null,
            "status": "verified",
            "region": "新北市林口區",
            "confirms": 2,
            "issues": 0,
            "id": 134
        },
        {
            "category": "forest",
            "lat": 25.124388,
            "lng": 121.523441,
            "name": "森林純點",
            "address": "4GFF+Q94 永欣里 臺北市北投區",
            "status": "verified",
            "region": "台北市北投區",
            "confirms": 0,
            "issues": 0,
            "id": 135
        },
        {
            "category": "library",
            "lat": 23.7565264,
            "lng": 120.6755702,
            "name": "竹山",
            "address": "南投縣竹山鎮大忠路15號",
            "status": "verified",
            "region": "南投",
            "confirms": 0,
            "issues": 0,
            "id": 136
        },
        {
            "category": "waterside",
            "lat": 24.147697,
            "lng": 120.621778,
            "name": "潮港城",
            "address": null,
            "status": "verified",
            "region": "台中市",
            "confirms": 0,
            "issues": 0,
            "id": 137
        },
        {
            "category": "ramen",
            "lat": 24.97338,
            "lng": 121.442031,
            "name": "慶安街",
            "address": null,
            "status": "verified",
            "region": "新北市土城區",
            "confirms": 0,
            "issues": 0,
            "id": 138
        },
        {
            "category": "ramen",
            "lat": 24.143949,
            "lng": 120.627782,
            "name": null,
            "address": null,
            "status": "verified",
            "region": "台中市南屯區",
            "confirms": 0,
            "issues": 1,
            "id": 139
        },
        {
            "category": "restaurant",
            "lat": 23.1273549,
            "lng": 120.2890579,
            "name": null,
            "address": null,
            "status": "verified",
            "region": "台南市善化區喔",
            "confirms": 0,
            "issues": 0,
            "id": 140
        },
        {
            "category": "clothesstore",
            "lat": 23.915763,
            "lng": 120.542859,
            "name": "鄉間上",
            "address": "512彰化縣永靖鄉永西路82號附近",
            "status": "verified",
            "region": "彰化縣永靖鄉",
            "confirms": 0,
            "issues": 0,
            "id": 141
        },
        {
            "category": "bus",
            "lat": 23.906032,
            "lng": 120.53874,
            "name": "小河邊",
            "address": "彰化縣永靖鄉五福巷6號附近，有皮克敏地點永田二號橋附近",
            "status": "verified",
            "region": "彰化縣永靖鄉",
            "confirms": 0,
            "issues": 0,
            "id": 142
        },
        {
            "category": "forest",
            "lat": 23.469067,
            "lng": 120.449583,
            "name": "車棚那邊",
            "address": null,
            "status": "verified",
            "region": "嘉義市",
            "confirms": 3,
            "issues": 0,
            "id": 143
        },
        {
            "category": "restaurant",
            "lat": 23.470679,
            "lng": 120.44941,
            "name": "國華街 與永安街路口",
            "address": null,
            "status": "verified",
            "region": "嘉義市",
            "confirms": 1,
            "issues": 0,
            "id": 144
        },
        {
            "category": "ramen",
            "lat": 23.472105,
            "lng": 120.448031,
            "name": "民生南路55巷與崇文街152巷交叉口",
            "address": "停車場（彩色雨棚這裡）",
            "status": "verified",
            "region": "嘉義市",
            "confirms": 2,
            "issues": 0,
            "id": 145
        },
        {
            "category": "minimart",
            "lat": 23.472611,
            "lng": 120.449283,
            "name": "成功東街口",
            "address": null,
            "status": "verified",
            "region": "嘉義市",
            "confirms": 2,
            "issues": 0,
            "id": 146
        },
        {
            "category": "stadium",
            "lat": 23.694681,
            "lng": 120.526527,
            "name": "旌旗教會",
            "address": "雲林縣斗六市大學路三段",
            "status": "verified",
            "region": "雲林縣斗六市",
            "confirms": 1,
            "issues": 0,
            "id": 147
        },
        {
            "category": "clothesstore",
            "lat": 25.0458527,
            "lng": 121.4637876,
            "name": null,
            "address": null,
            "status": "verified",
            "region": "新北市新莊區",
            "confirms": 0,
            "issues": 0,
            "id": 148
        },
        {
            "category": "airport",
            "lat": 24.2451979,
            "lng": 120.6361981,
            "name": "清泉崗機場",
            "address": null,
            "status": "verified",
            "region": "台中市大雅區",
            "confirms": 4,
            "issues": 0,
            "id": 149
        },
        {
            "category": "stadium",
            "lat": 25.058991,
            "lng": 121.48211,
            "name": "文中小平面停車場",
            "address": "新北市三重區三陽路100巷3弄172-7號停車場出入口旁",
            "status": "verified",
            "region": "新北市三重區",
            "confirms": 1,
            "issues": 0,
            "id": 150
        },
        {
            "category": "pharmacy",
            "lat": 25.0822226,
            "lng": 121.4756547,
            "name": "全佑藥局",
            "address": "蘆洲區三民路11號",
            "status": "verified",
            "region": "新北市",
            "confirms": 0,
            "issues": 1,
            "id": 151
        },
        {
            "category": "bus",
            "lat": 25.076817,
            "lng": 121.488865,
            "name": "公車站純點",
            "address": "新北市三重區自強路四段30號加油站附近",
            "status": "verified",
            "region": "新北市三重區",
            "confirms": 0,
            "issues": 0,
            "id": 152
        },
        {
            "category": "library",
            "lat": 24.2363658,
            "lng": 120.6661302,
            "name": "大雅上楓圖書館",
            "address": "大雅上楓圖書館",
            "status": "verified",
            "region": "台中市",
            "confirms": 1,
            "issues": 0,
            "id": 153
        },
        {
            "category": "minimart",
            "lat": 23.7579393,
            "lng": 120.4963903,
            "name": "全家雲承店",
            "address": "雲林縣莿桐鄉中正路228號",
            "status": "verified",
            "region": "雲林縣莿桐鄉",
            "confirms": 0,
            "issues": 0,
            "id": 154
        },
        {
            "category": "hairsalon",
            "lat": 23.7590599,
            "lng": 120.500246,
            "name": "大家好自助餐",
            "address": "雲林縣莿桐鄉北平路24號",
            "status": "verified",
            "region": " 雲林縣莿桐鄉",
            "confirms": 0,
            "issues": 0,
            "id": 155
        },
        {
            "category": "park",
            "lat": 25.021041,
            "lng": 121.298233,
            "name": "恆新復健診所",
            "address": "330桃園市桃園區新埔八街111號",
            "status": "verified",
            "region": "桃園市桃園區",
            "confirms": 2,
            "issues": 0,
            "id": 156
        },
        {
            "category": "beach",
            "lat": 24.068404,
            "lng": 120.394961,
            "name": "台灣玻璃館",
            "address": "台灣玻璃館小客車停車場",
            "status": "verified",
            "region": "彰化縣鹿港鎮",
            "confirms": 0,
            "issues": 2,
            "id": 157
        },
        {
            "category": "restaurant",
            "lat": 25.0586621,
            "lng": 121.63672,
            "name": null,
            "address": null,
            "status": "verified",
            "region": "新北市汐止區",
            "confirms": 1,
            "issues": 0,
            "id": 158
        },
        {
            "category": "minimart",
            "lat": 23.030926,
            "lng": 120.23527,
            "name": "永康超狂特賣會",
            "address": "臺南市永康區正南三路178號",
            "status": "verified",
            "region": "台南市永康區",
            "confirms": 0,
            "issues": 0,
            "id": 159
        },
        {
            "category": "park",
            "lat": 23.6906357,
            "lng": 120.2072448,
            "name": "松田公園",
            "address": null,
            "status": "verified",
            "region": "雲林縣",
            "confirms": 0,
            "issues": 0,
            "id": 160
        },
        {
            "category": "bridge",
            "lat": 23.6976982,
            "lng": 120.1947423,
            "name": "橋",
            "address": null,
            "status": "verified",
            "region": "雲林縣",
            "confirms": 2,
            "issues": 0,
            "id": 161
        },
        {
            "category": "pharmacy",
            "lat": 23.6990512,
            "lng": 120.1996914,
            "name": "台西衛生所",
            "address": null,
            "status": "verified",
            "region": "雲林縣",
            "confirms": 0,
            "issues": 0,
            "id": 162
        },
        {
            "category": "forest",
            "lat": 23.05881,
            "lng": 120.2337,
            "name": "國立臺灣歷史博物館",
            "address": "外圍步道",
            "status": "verified",
            "region": "台南市安南區",
            "confirms": 0,
            "issues": 0,
            "id": 163
        },
        {
            "category": "waterside",
            "lat": 23.05881,
            "lng": 120.2337,
            "name": "歷史博物館",
            "address": "歷史博物館周圍",
            "status": "verified",
            "region": "台南市安南區",
            "confirms": 0,
            "issues": 0,
            "id": 164
        },
        {
            "category": "laundry",
            "lat": 22.666761,
            "lng": 120.317905,
            "name": "三民區",
            "address": "鼎和街43號/日大平價泳裝鼎和店",
            "status": "verified",
            "region": "高雄市",
            "confirms": 3,
            "issues": 0,
            "id": 165
        },
        {
            "category": "stadium",
            "lat": 25.01678,
            "lng": 121.467393,
            "name": "環狀線新埔站附近",
            "address": "新北市板橋區漢生東路83巷",
            "status": "verified",
            "region": "新北市板橋區",
            "confirms": 0,
            "issues": 0,
            "id": 166
        },
        {
            "category": "pharmacy",
            "lat": 25.013856,
            "lng": 121.452874,
            "name": null,
            "address": "南雅西路二段180巷23號",
            "status": "verified",
            "region": "新北市板橋區",
            "confirms": 0,
            "issues": 1,
            "id": 167
        },
        {
            "category": "park",
            "lat": 25.1869069,
            "lng": 121.4424423,
            "name": "淡水運動中心附近",
            "address": null,
            "status": "verified",
            "region": "新北市淡水區",
            "confirms": 0,
            "issues": 0,
            "id": 168
        },
        {
            "category": "forest",
            "lat": 25.1831729,
            "lng": 121.4404802,
            "name": "新春街",
            "address": null,
            "status": "verified",
            "region": "新北市淡水區",
            "confirms": 0,
            "issues": 0,
            "id": 169
        },
        {
            "category": "minimart",
            "lat": 23.907771,
            "lng": 120.524962,
            "name": "7-11花都門市",
            "address": "田尾鄉民生路一段586號",
            "status": "verified",
            "region": "彰化縣",
            "confirms": 0,
            "issues": 0,
            "id": 170
        },
        {
            "category": "clothesstore",
            "lat": 23.800895,
            "lng": 120.450009,
            "name": null,
            "address": "雲林縣西螺鎮福來路530號",
            "status": "verified",
            "region": "雲林縣",
            "confirms": 0,
            "issues": 0,
            "id": 171
        },
        {
            "category": "hotel",
            "lat": 22.626437,
            "lng": 120.302658,
            "name": "描屋早午餐",
            "address": null,
            "status": "verified",
            "region": "高雄市新興區",
            "confirms": 2,
            "issues": 0,
            "id": 172
        },
        {
            "category": "clothesstore",
            "lat": 25.032898,
            "lng": 121.44428,
            "name": null,
            "address": "偉一西服前面",
            "status": "verified",
            "region": "新北市",
            "confirms": 0,
            "issues": 0,
            "id": 173
        },
        {
            "category": "ramen",
            "lat": 23.6996682,
            "lng": 120.2010372,
            "name": "台西麵店",
            "address": null,
            "status": "verified",
            "region": "雲林縣",
            "confirms": 1,
            "issues": 0,
            "id": 174
        },
        {
            "category": "bus",
            "lat": 25.063933,
            "lng": 121.589068,
            "name": "內湖區",
            "address": "雄獅旅遊附近 石潭路 跟 石潭路131巷交叉口",
            "status": "verified",
            "region": "台北市",
            "confirms": 0,
            "issues": 0,
            "id": 175
        },
        {
            "category": "bus",
            "lat": 24.99876,
            "lng": 121.42306,
            "name": "台灣電力公司綜合研究所樹林所區 的巷子裡",
            "address": "新北市樹林區大安路84巷",
            "status": "verified",
            "region": "新北市樹林區",
            "confirms": 0,
            "issues": 0,
            "id": 176
        },
        {
            "category": "forest",
            "lat": 24.96499,
            "lng": 121.380831,
            "name": null,
            "address": "樹林寶寶 蘑菇點 往山壁靠近的地方",
            "status": "verified",
            "region": "新北市樹林區",
            "confirms": 0,
            "issues": 0,
            "id": 177
        },
        {
            "category": "pharmacy",
            "lat": 22.5884584,
            "lng": 120.3565295,
            "name": null,
            "address": "里歐頂豐店",
            "status": "verified",
            "region": "高雄市鳳山區",
            "confirms": 0,
            "issues": 0,
            "id": 178
        },
        {
            "category": "supermarket",
            "lat": 23.749187,
            "lng": 121.450062,
            "name": "鳳林鎮",
            "address": "97545花蓮縣鳳林鎮中正路二段212號",
            "status": "verified",
            "region": "花蓮縣",
            "confirms": 0,
            "issues": 0,
            "id": 179
        },
        {
            "category": "library",
            "lat": 23.871107,
            "lng": 121.507686,
            "name": "壽豐鄉立圖書館",
            "address": "974花蓮縣壽豐鄉壽山路62號",
            "status": "verified",
            "region": "花蓮縣壽豐鄉",
            "confirms": 0,
            "issues": 0,
            "id": 180
        },
        {
            "category": "cafe",
            "lat": 23.875603,
            "lng": 121.513246,
            "name": "小和山谷",
            "address": null,
            "status": "verified",
            "region": "花蓮縣壽豐鄉",
            "confirms": 1,
            "issues": 0,
            "id": 181
        },
        {
            "category": "supermarket",
            "lat": 23.0209187,
            "lng": 120.2304187,
            "name": "麻辣天后炒香鍋旁邊巷子",
            "address": "臺南市永康區大橋二街239巷口",
            "status": "verified",
            "region": "台南市永康區",
            "confirms": 0,
            "issues": 0,
            "id": 182
        },
        {
            "category": "diy",
            "lat": 23.0367033,
            "lng": 120.231737,
            "name": "沈豪國際專業快速洗車場",
            "address": "710臺南市永康區中正南路611號",
            "status": "verified",
            "region": "台南市永康區",
            "confirms": 0,
            "issues": 0,
            "id": 183
        },
        {
            "category": "hairsalon",
            "lat": 25.0121178,
            "lng": 121.2184899,
            "name": "𝐁𝐨𝐭𝐡 𝐗 𝐡𝐚𝐢𝐫 桃園青埔髮廊",
            "address": "桃園市中壢區青山路",
            "status": "verified",
            "region": "桃園市中壢區",
            "confirms": 1,
            "issues": 0,
            "id": 184
        },
        {
            "category": "hairsalon",
            "lat": 24.1087738,
            "lng": 120.634229,
            "name": "歪歪髮廊",
            "address": "台中市烏日區中華路544號",
            "status": "verified",
            "region": "台中市烏日區",
            "confirms": 2,
            "issues": 0,
            "id": 185
        },
        {
            "category": "beach",
            "lat": 22.4830579,
            "lng": 120.3961658,
            "name": "林園",
            "address": "高雄市林園區中芸路",
            "status": "verified",
            "region": "高雄市",
            "confirms": 2,
            "issues": 0,
            "id": 186
        },
        {
            "category": "airport",
            "lat": 25.060132,
            "lng": 121.2192366,
            "name": "05R跑道觀賞點",
            "address": "不要太靠近觀賞點要往回一點",
            "status": "verified",
            "region": "桃園市大園區",
            "confirms": 10,
            "issues": 1,
            "id": 187
        },
        {
            "category": "roadside",
            "lat": 24.123201,
            "lng": 120.608452,
            "name": "學田里",
            "address": "台中市烏日學田社區",
            "status": "verified",
            "region": "台中市烏日區",
            "confirms": 0,
            "issues": 0,
            "id": 188
        },
        {
            "category": "shrine",
            "lat": 42.8855926,
            "lng": 141.5693119,
            "name": "Toyosaka Shrine 豊栄神社",
            "address": "Toyosaka Shrine 豊栄神社 ",
            "status": "verified",
            "region": "北海道惠庭市",
            "confirms": 3,
            "issues": 0,
            "id": 189
        },
        {
            "category": "forest",
            "lat": 25.008792,
            "lng": 121.354398,
            "name": "東方高爾夫俱樂部",
            "address": null,
            "status": "verified",
            "region": "桃園市龜山區",
            "confirms": 1,
            "issues": 0,
            "id": 190
        },
        {
            "category": "bus",
            "lat": 23.485803,
            "lng": 120.42406,
            "name": null,
            "address": "世貿路一段與北港路交叉口附近很大範圍都是純點",
            "status": "verified",
            "region": "嘉義市西區",
            "confirms": 0,
            "issues": 0,
            "id": 191
        },
        {
            "category": "restaurant",
            "lat": 23.472407,
            "lng": 120.446925,
            "name": "阿婆炸麻糬",
            "address": "接近轉角處",
            "status": "verified",
            "region": "嘉義市",
            "confirms": 3,
            "issues": 1,
            "id": 192
        },
        {
            "category": "park",
            "lat": 25.069959,
            "lng": 121.489825,
            "name": "三重聖玄慈惠堂",
            "address": "新北市三重區自強路二段67巷聖玄慈惠堂附近",
            "status": "verified",
            "region": "新北市三重區",
            "confirms": 0,
            "issues": 0,
            "id": 193
        },
        {
            "category": "roadside",
            "lat": 25.08954,
            "lng": 121.456809,
            "name": "路邊純點",
            "address": "新北市蘆洲區永樂街38巷19弄42號",
            "status": "verified",
            "region": "新北市蘆洲區",
            "confirms": 0,
            "issues": 0,
            "id": 194
        },
        {
            "category": "restaurant",
            "lat": 25.094802,
            "lng": 121.46943,
            "name": "餐廳純點",
            "address": "新北市蘆洲區仁愛街122號美聯社附近",
            "status": "verified",
            "region": "新北市蘆洲區",
            "confirms": 1,
            "issues": 0,
            "id": 195
        },
        {
            "category": "park",
            "lat": 25.090414,
            "lng": 121.484699,
            "name": "大台北菜市場",
            "address": "新北市蘆洲區五華街326-6號附近",
            "status": "verified",
            "region": "新北市蘆洲區",
            "confirms": 2,
            "issues": 0,
            "id": 196
        },
        {
            "category": "bus",
            "lat": 22.924254,
            "lng": 120.29135,
            "name": "中央研究院南部院",
            "address": "中央研究院南部院路口蘭花瓣藝術品附近",
            "status": "verified",
            "region": "台南市歸仁區",
            "confirms": 0,
            "issues": 0,
            "id": 197
        },
        {
            "category": "park",
            "lat": 23.685234,
            "lng": 120.443291,
            "name": "西伯小公園",
            "address": null,
            "status": "verified",
            "region": "雲林縣",
            "confirms": 3,
            "issues": 0,
            "id": 198
        },
        {
            "category": "park",
            "lat": 22.926014,
            "lng": 120.290054,
            "name": "公園純點",
            "address": "在台南三井後門高發二路288號附近",
            "status": "verified",
            "region": "台南市歸仁區",
            "confirms": 0,
            "issues": 0,
            "id": 199
        },
        {
            "category": "bus",
            "lat": 22.920002,
            "lng": 120.291912,
            "name": "公車站純點",
            "address": "在大武路一段有寫著C區製程試驗場附近",
            "status": "verified",
            "region": "台南市歸仁區",
            "confirms": 0,
            "issues": 0,
            "id": 200
        },
        {
            "category": "roadside",
            "lat": 22.921601,
            "lng": 120.29006,
            "name": "路邊純點",
            "address": "在高發二路跟蓮仁路中間這段歸仁十五路上",
            "status": "verified",
            "region": "台南市歸仁區",
            "confirms": 0,
            "issues": 0,
            "id": 201
        },
        {
            "category": "bridge",
            "lat": 22.921231,
            "lng": 120.288663,
            "name": "橋樑純點",
            "address": "在蓮仁路與歸仁十五路的紅綠燈路口",
            "status": "verified",
            "region": "台南市歸仁區",
            "confirms": 0,
            "issues": 0,
            "id": 202
        },
        {
            "category": "waterside",
            "lat": 22.920613,
            "lng": 120.290898,
            "name": "水邊純點",
            "address": "在沙崙綠能科技示範的鹿附近",
            "status": "verified",
            "region": "台南市歸仁區",
            "confirms": 0,
            "issues": 0,
            "id": 203
        },
        {
            "category": "ramen",
            "lat": 23.457807,
            "lng": 120.295393,
            "name": "阿文自助餐附近（依座標為主）",
            "address": "人行道",
            "status": "verified",
            "region": "嘉義縣太保市",
            "confirms": 0,
            "issues": 0,
            "id": 204
        },
        {
            "category": "ramen",
            "lat": 22.982024,
            "lng": 120.233422,
            "name": "拉麵店純點",
            "address": "台南市東區富農街一段131巷42弄1號",
            "status": "verified",
            "region": "台南市東區",
            "confirms": 0,
            "issues": 0,
            "id": 205
        },
        {
            "category": "forest",
            "lat": 25.185332,
            "lng": 121.488169,
            "name": "天元宮後山櫻花園區",
            "address": "在爬斜坡上來看的到天元宮附近",
            "status": "verified",
            "region": "新北市淡水區",
            "confirms": 0,
            "issues": 0,
            "id": 206
        },
        {
            "category": "forest",
            "lat": 25.091354,
            "lng": 121.479203,
            "name": "森林純點",
            "address": "新北市蘆洲區復興路227巷29號",
            "status": "verified",
            "region": "新北市蘆洲區",
            "confirms": 2,
            "issues": 0,
            "id": 207
        },
        {
            "category": "clothesstore",
            "lat": 25.090672,
            "lng": 121.480219,
            "name": "髮圈純點",
            "address": "新北市蘆洲區復興路227巷18號",
            "status": "verified",
            "region": "新北市蘆洲區",
            "confirms": 1,
            "issues": 0,
            "id": 208
        },
        {
            "category": "bus",
            "lat": 25.088609,
            "lng": 121.484576,
            "name": "公車站純點",
            "address": "新北市蘆洲區集賢路168-5號",
            "status": "verified",
            "region": "新北市蘆洲區",
            "confirms": 2,
            "issues": 0,
            "id": 209
        },
        {
            "category": "ramen",
            "lat": 22.969431,
            "lng": 120.288639,
            "name": "拉麵店純點",
            "address": "台南市歸仁區民權三街28號",
            "status": "verified",
            "region": "台南市歸仁區",
            "confirms": 0,
            "issues": 0,
            "id": 210
        },
        {
            "category": "minimart",
            "lat": 25.093409,
            "lng": 121.474418,
            "name": "便利店純點",
            "address": "新北市蘆洲區408巷22號",
            "status": "verified",
            "region": "新北市蘆洲區",
            "confirms": 2,
            "issues": 0,
            "id": 211
        },
        {
            "category": "roadside",
            "lat": 25.093088,
            "lng": 121.474254,
            "name": "路邊純點",
            "address": "新北市蘆洲區422巷48弄34號",
            "status": "verified",
            "region": "新北市蘆洲區",
            "confirms": 1,
            "issues": 0,
            "id": 212
        },
        {
            "category": "minimart",
            "lat": 25.090156,
            "lng": 121.48192,
            "name": "便利商店純點",
            "address": "新北市蘆洲區中興街150號",
            "status": "verified",
            "region": "新北市蘆洲區",
            "confirms": 1,
            "issues": 0,
            "id": 213
        },
        {
            "category": "roadside",
            "lat": 25.089177,
            "lng": 121.482193,
            "name": "路邊純點",
            "address": "新北市蘆洲區中興街126號",
            "status": "verified",
            "region": "新北市蘆洲區",
            "confirms": 1,
            "issues": 0,
            "id": 214
        },
        {
            "category": "sweetshop",
            "lat": 23.555376,
            "lng": 120.47061,
            "name": "馳名串燒",
            "address": "大學路一段、正大路路口",
            "status": "verified",
            "region": "嘉義縣民雄",
            "confirms": 0,
            "issues": 3,
            "id": 215
        },
        {
            "category": "postoffice",
            "lat": 22.5831656,
            "lng": 120.358051,
            "name": "桂林郵局",
            "address": null,
            "status": "verified",
            "region": "高雄市小港區",
            "confirms": 1,
            "issues": 1,
            "id": 216
        },
        {
            "category": "pharmacy",
            "lat": 22.5865547,
            "lng": 120.3626734,
            "name": "萊爾富鳳山尚勇店",
            "address": null,
            "status": "verified",
            "region": "高雄市鳳山區",
            "confirms": 0,
            "issues": 1,
            "id": 217
        },
        {
            "category": "themePark",
            "lat": 23.9299008,
            "lng": 120.6783416,
            "name": null,
            "address": null,
            "status": "verified",
            "region": "南投市",
            "confirms": 1,
            "issues": 0,
            "id": 218
        },
        {
            "category": "station",
            "lat": 24.80648,
            "lng": 121.003601,
            "name": "千甲車站",
            "address": null,
            "status": "verified",
            "region": "新竹市",
            "confirms": 0,
            "issues": 0,
            "id": 219
        },
        {
            "category": "waterside",
            "lat": 24.954928,
            "lng": 121.230966,
            "name": "翰暉對面",
            "address": null,
            "status": "verified",
            "region": "桃園市中壢區",
            "confirms": 1,
            "issues": 0,
            "id": 220
        },
        {
            "category": "supermarket",
            "lat": 24.789428,
            "lng": 121.019746,
            "name": null,
            "address": null,
            "status": "verified",
            "region": "宜蘭縣",
            "confirms": 3,
            "issues": 1,
            "id": 221
        },
        {
            "category": "minimart",
            "lat": 24.109968,
            "lng": 120.636823,
            "name": "7-ELEVEN 興祥門市",
            "address": "台中市烏日區明德街",
            "status": "verified",
            "region": "台中市烏日區",
            "confirms": 0,
            "issues": 1,
            "id": 222
        },
        {
            "category": "ramen",
            "lat": 24.552298,
            "lng": 120.818364,
            "name": "皙之密苗栗生活館附近",
            "address": "苗栗縣苗栗市新東街19號",
            "status": "verified",
            "region": "苗栗市",
            "confirms": 1,
            "issues": 0,
            "id": 223
        },
        {
            "category": "bus",
            "lat": 23.6124034,
            "lng": 120.4401148,
            "name": "大林公車轉運站",
            "address": null,
            "status": "verified",
            "region": "嘉義縣",
            "confirms": 0,
            "issues": 0,
            "id": 224
        },
        {
            "category": "forest",
            "lat": 24.263697,
            "lng": 120.578835,
            "name": "清水區第一公墓",
            "address": "臺中市清水區台10乙線附近",
            "status": "verified",
            "region": "台中清水",
            "confirms": 1,
            "issues": 0,
            "id": 225
        },
        {
            "category": "park",
            "lat": 24.223996,
            "lng": 120.581317,
            "name": "晉宜公園",
            "address": "臺中市沙鹿區晉宜公園附近",
            "status": "verified",
            "region": "台中沙鹿",
            "confirms": 1,
            "issues": 0,
            "id": 226
        },
        {
            "category": "bakery",
            "lat": 24.264225,
            "lng": 120.573632,
            "name": "美二佳蛋糕麵包伴手禮店(清水店)",
            "address": "臺中市清水區中山路附近",
            "status": "verified",
            "region": "台中清水",
            "confirms": 2,
            "issues": 0,
            "id": 227
        },
        {
            "category": "laundry",
            "lat": 22.540902,
            "lng": 120.535521,
            "name": "富登塑鋼",
            "address": "920屏東縣潮州鎮光復路42-1號",
            "status": "verified",
            "region": "屏東縣",
            "confirms": 1,
            "issues": 0,
            "id": 228
        },
        {
            "category": "restaurant",
            "lat": 25.0603122,
            "lng": 121.4995743,
            "name": "光興停車場",
            "address": null,
            "status": "verified",
            "region": "新北市三重區",
            "confirms": 0,
            "issues": 0,
            "id": 229
        },
        {
            "category": "laundry",
            "lat": 22.7289713,
            "lng": 120.3293537,
            "name": "甲依洗衣店",
            "address": "甲依洗衣店",
            "status": "verified",
            "region": "高雄市",
            "confirms": 1,
            "issues": 0,
            "id": 230
        },
        {
            "category": "waterside",
            "lat": 22.7778486,
            "lng": 120.3030134,
            "name": "高捷岡山高醫站",
            "address": "在橋頭火車站跟岡山高醫中間，搭捷運可以掃到",
            "status": "verified",
            "region": "高雄市岡山區",
            "confirms": 1,
            "issues": 0,
            "id": 231
        },
        {
            "category": "park",
            "lat": 25.013877,
            "lng": 121.315889,
            "name": "會稽公園",
            "address": "溜滑梯那段",
            "status": "verified",
            "region": "桃園市桃園區",
            "confirms": 1,
            "issues": 0,
            "id": 232
        },
        {
            "category": "ramen",
            "lat": 25.017542,
            "lng": 121.312125,
            "name": "桃林步道",
            "address": "大興西路灶咖那側，蘿蔔糕阿伯附近",
            "status": "verified",
            "region": "桃園市桃園區",
            "confirms": 1,
            "issues": 0,
            "id": 233
        },
        {
            "category": "park",
            "lat": 25.02026,
            "lng": 121.312755,
            "name": "南昌公園",
            "address": "匹克球場",
            "status": "verified",
            "region": "桃園市桃園區",
            "confirms": 1,
            "issues": 0,
            "id": 234
        },
        {
            "category": "stadium",
            "lat": 23.018851468531143,
            "lng": 120.20510002745736,
            "name": "小北E棒球場",
            "address": "台南市北區育德一街&文成五路交叉口",
            "status": "verified",
            "region": "台南市北區",
            "confirms": 3,
            "issues": 0,
            "id": 235
        },
        {
            "category": "postoffice",
            "lat": 24.108277,
            "lng": 120.459549,
            "name": null,
            "address": null,
            "status": "verified",
            "region": "彰化縣鹿港鎮",
            "confirms": 1,
            "issues": 0,
            "id": 236
        },
        {
            "category": "postoffice",
            "lat": 25.052766,
            "lng": 121.471887,
            "name": "三重二重埔郵局",
            "address": "光復路一段140號",
            "status": "verified",
            "region": "新北市三重區",
            "confirms": 0,
            "issues": 1,
            "id": 237
        },
        {
            "category": "cafe",
            "lat": 24.8018438,
            "lng": 120.9578187,
            "name": null,
            "address": "北新街39巷接中和路52巷交界路口",
            "status": "verified",
            "region": "新竹市",
            "confirms": 1,
            "issues": 0,
            "id": 238
        },
        {
            "category": "ramen",
            "lat": 25.0275358,
            "lng": 121.503823,
            "name": null,
            "address": "108臺北市萬華區中華路二段416巷66弄61-25附近",
            "status": "verified",
            "region": "台北市萬華區",
            "confirms": 0,
            "issues": 0,
            "id": 239
        },
        {
            "category": "hairsalon",
            "lat": 24.179482,
            "lng": 120.579202,
            "name": "龍井區",
            "address": null,
            "status": "verified",
            "region": "台中市",
            "confirms": 0,
            "issues": 3,
            "id": 240
        },
        {
            "category": "bus",
            "lat": 22.969274,
            "lng": 120.299991,
            "name": "歸仁區",
            "address": "711臺南市歸仁區大仁街143號",
            "status": "verified",
            "region": "台南市",
            "confirms": 0,
            "issues": 0,
            "id": 241
        },
        {
            "category": "shrine",
            "lat": 35.42283,
            "lng": 139.478472,
            "name": "神明神社",
            "address": "日本橫濱市泉區上飯田町",
            "status": "verified",
            "region": "日本橫濱市",
            "confirms": 2,
            "issues": 0,
            "id": 242
        },
        {
            "category": "waterside",
            "lat": 25.017277,
            "lng": 121.317486,
            "name": null,
            "address": null,
            "status": "verified",
            "region": "桃園區",
            "confirms": 0,
            "issues": 0,
            "id": 243
        },
        {
            "category": "clothesstore",
            "lat": 25.083058,
            "lng": 121.485336,
            "name": "吉得堡存髮圈存",
            "address": "仁華街75號",
            "status": "verified",
            "region": "新北市",
            "confirms": 0,
            "issues": 0,
            "id": 244
        },
        {
            "category": "waterside",
            "lat": 24.79551,
            "lng": 121.04747,
            "name": "高鐵六家基地",
            "address": "提頂一街",
            "status": "verified",
            "region": "新竹縣",
            "confirms": 0,
            "issues": 0,
            "id": 245
        },
        {
            "category": "makeup",
            "lat": 23.480802,
            "lng": 120.453248,
            "name": "德美藥行附近",
            "address": null,
            "status": "verified",
            "region": "嘉義市",
            "confirms": 0,
            "issues": 0,
            "id": 246
        },
        {
            "category": "park",
            "lat": 25.081599,
            "lng": 121.550683,
            "name": "大直植福宮",
            "address": null,
            "status": "verified",
            "region": "台北市中山區",
            "confirms": 1,
            "issues": 0,
            "id": 247
        },
        {
            "category": "roadside",
            "lat": 24.986782,
            "lng": 121.534971,
            "name": "慈濟醫院",
            "address": "急診菇附近",
            "status": "verified",
            "region": "台北市",
            "confirms": 0,
            "issues": 0,
            "id": 248
        },
        {
            "category": "diy",
            "lat": 24.8172467,
            "lng": 121.0303242,
            "name": "旺客隆五金百貨",
            "address": "竹北市嘉豐二街一段2-38",
            "status": "verified",
            "region": "竹北市",
            "confirms": 7,
            "issues": 0,
            "id": 249
        },
        {
            "category": "bus",
            "lat": 22.73295,
            "lng": 120.320048,
            "name": null,
            "address": "德民路跟高楠公路測速照相機前",
            "status": "verified",
            "region": "高雄市楠梓區",
            "confirms": 1,
            "issues": 0,
            "id": 250
        },
        {
            "category": "bus",
            "lat": 25.1447896,
            "lng": 121.7631252,
            "name": "三總醫院",
            "address": null,
            "status": "verified",
            "region": "基隆市中正區",
            "confirms": 0,
            "issues": 0,
            "id": 251
        },
        {
            "category": "waterside",
            "lat": 24.2900694,
            "lng": 120.6331876,
            "name": "全家便利商店清水海風店",
            "address": "436臺中市清水區神清路86之28號86之21號",
            "status": "verified",
            "region": "臺中市清水區",
            "confirms": 0,
            "issues": 0,
            "id": 252
        },
        {
            "category": "italian",
            "lat": 25.085451,
            "lng": 121.461689,
            "name": "蔡記隆府",
            "address": "新北市蘆洲區長興路58巷1號",
            "status": "verified",
            "region": "新北市蘆洲區",
            "confirms": 0,
            "issues": 0,
            "id": 253
        },
        {
            "category": "stadium",
            "lat": 25.04237,
            "lng": 121.560898,
            "name": "大巨蛋GATE1入口",
            "address": "大巨蛋1號入口",
            "status": "verified",
            "region": "台北市信義區",
            "confirms": 8,
            "issues": 4,
            "id": 254
        },
        {
            "category": "bakery",
            "lat": 23.1206794,
            "lng": 120.1988284,
            "name": "佳湘麵包",
            "address": "佳湘麵包路口",
            "status": "verified",
            "region": "臺南市西港區",
            "confirms": 1,
            "issues": 0,
            "id": 255
        },
        {
            "category": "roadside",
            "lat": 23.07174,
            "lng": 120.16192,
            "name": "南科",
            "address": null,
            "status": "verified",
            "region": "台南市善化區",
            "confirms": 0,
            "issues": 0,
            "id": 256
        },
        {
            "category": "supermarket",
            "lat": 24.111155,
            "lng": 120.6416855,
            "name": "美聯社",
            "address": "台中市烏日區中華路94號美廉社 烏日中華店",
            "status": "verified",
            "region": "台中市烏日區",
            "confirms": 2,
            "issues": 0,
            "id": 257
        },
        {
            "category": "supermarket",
            "lat": 22.9653337,
            "lng": 120.2252763,
            "name": "全聯 台南生產店",
            "address": "生產路181號",
            "status": "verified",
            "region": "台南市東區",
            "confirms": 0,
            "issues": 0,
            "id": 258
        },
        {
            "category": "clothesstore",
            "lat": 23.898707,
            "lng": 120.536828,
            "name": "河邊小路",
            "address": "522彰化縣田尾鄉福德巷439號",
            "status": "verified",
            "region": "彰化縣田尾鄉",
            "confirms": 0,
            "issues": 0,
            "id": 259
        },
        {
            "category": "restaurant",
            "lat": 25.087546,
            "lng": 121.472974,
            "name": "三民高中三民路旁巷子",
            "address": "新北市蘆洲區三民路98巷19號",
            "status": "verified",
            "region": "新北市蘆洲區",
            "confirms": 1,
            "issues": 0,
            "id": 260
        },
        {
            "category": "library",
            "lat": 23.4898997,
            "lng": 120.4289998,
            "name": "世賢圖書館",
            "address": "嘉義市西區竹圍路",
            "status": "verified",
            "region": "嘉義市",
            "confirms": 3,
            "issues": 0,
            "id": 261
        },
        {
            "category": "ramen",
            "lat": 23.001303,
            "lng": 120.204204,
            "name": "揣茶",
            "address": "臺南市北區長北街66號",
            "status": "verified",
            "region": "台南市北區",
            "confirms": 2,
            "issues": 0,
            "id": 262
        },
        {
            "category": "hairsalon",
            "lat": 22.615998063732434,
            "lng": 120.32108666884864,
            "name": "阡藝理髮廳",
            "address": "高雄市廣西路與廣東二街交叉口",
            "status": "verified",
            "region": "高雄市",
            "confirms": 3,
            "issues": 0,
            "id": 263
        },
        {
            "category": "clothesstore",
            "lat": 23.0193977,
            "lng": 120.2178476,
            "name": "中正南路52巷46弄",
            "address": "奇美醫院第五停車場附近",
            "status": "verified",
            "region": "台南市永康區",
            "confirms": 0,
            "issues": 0,
            "id": 264
        },
        {
            "category": "restaurant",
            "lat": 23.018677,
            "lng": 120.250015,
            "name": "吉隆茶葉旁巷子",
            "address": "永二街288巷底",
            "status": "verified",
            "region": "台南市永康區",
            "confirms": 0,
            "issues": 0,
            "id": 265
        },
        {
            "category": "diy",
            "lat": 23.0119768,
            "lng": 120.2481854,
            "name": "康永牙醫後面",
            "address": "復國路二段173巷口",
            "status": "verified",
            "region": "台南市永康區",
            "confirms": 1,
            "issues": 0,
            "id": 266
        },
        {
            "category": "hamburger",
            "lat": 23.97911,
            "lng": 121.5885,
            "name": "梅珍香食品",
            "address": "花蓮縣吉安鄉梅珍香店面的佛具行附近",
            "status": "verified",
            "region": "花蓮縣吉安鄉",
            "confirms": 0,
            "issues": 0,
            "id": 267
        },
        {
            "category": "hairsalon",
            "lat": 23.96935,
            "lng": 121.60148,
            "name": "幸福旅人民宿",
            "address": "花蓮市福建街162-2號",
            "status": "verified",
            "region": "花蓮縣花蓮市",
            "confirms": 1,
            "issues": 0,
            "id": 268
        },
        {
            "category": "restaurant",
            "lat": 25.022038,
            "lng": 121.522471,
            "name": null,
            "address": "金門街24巷",
            "status": "verified",
            "region": "台北市中正區",
            "confirms": 0,
            "issues": 0,
            "id": 269
        },
        {
            "category": "postoffice",
            "lat": 25.007175,
            "lng": 121.285951,
            "name": "桃園國際路郵局",
            "address": "桃園市桃園區國際路二段589號",
            "status": "verified",
            "region": "桃園市桃園區",
            "confirms": 3,
            "issues": 0,
            "id": 270
        },
        {
            "category": "beach",
            "lat": 25.160181,
            "lng": 121.762505,
            "name": "和平島公園",
            "address": "和平島公園前紅色告示牌",
            "status": "verified",
            "region": "基隆市中正區",
            "confirms": 1,
            "issues": 0,
            "id": 271
        },
        {
            "category": "supermarket",
            "lat": 25.086603,
            "lng": 121.600684,
            "name": "大湖國小附近",
            "address": "大湖街131巷(範圍不大，往國小過去會變成路邊/金幣純點)",
            "status": "verified",
            "region": "臺北市內湖區",
            "confirms": 1,
            "issues": 0,
            "id": 272
        },
        {
            "category": "airport",
            "lat": 24.782488,
            "lng": 125.295424,
            "name": "沖繩宮古島市",
            "address": "沖繩縣宮古島市西里",
            "status": "verified",
            "region": "沖繩縣宮古島",
            "confirms": 0,
            "issues": 0,
            "id": 273
        },
        {
            "category": "pharmacy",
            "lat": 23.0159697,
            "lng": 120.2652569,
            "name": "7-11北興門市旁",
            "address": "大同街路上",
            "status": "verified",
            "region": "臺南市永康區",
            "confirms": 0,
            "issues": 0,
            "id": 274
        },
        {
            "category": "italian",
            "lat": 23.0301726,
            "lng": 120.2602774,
            "name": "龍樂火鍋門口",
            "address": "臺南市永康區永大路",
            "status": "verified",
            "region": "臺南市永康區",
            "confirms": 1,
            "issues": 0,
            "id": 275
        },
        {
            "category": "restaurant",
            "lat": 23.0102373,
            "lng": 120.2655936,
            "name": "永康區大同街路邊",
            "address": "靠近北興7-11",
            "status": "verified",
            "region": "臺南市永康區",
            "confirms": 0,
            "issues": 0,
            "id": 276
        },
        {
            "category": "library",
            "lat": 25.129799,
            "lng": 121.761032,
            "name": "正信路書純點",
            "address": "基隆市信義區正信路",
            "status": "verified",
            "region": "基隆市信義區",
            "confirms": 0,
            "issues": 0,
            "id": 277
        },
        {
            "category": "park",
            "lat": 22.5945863,
            "lng": 120.488572,
            "name": "萬丹公園路口",
            "address": "路口附近",
            "status": "verified",
            "region": "屏東縣",
            "confirms": 1,
            "issues": 0,
            "id": 278
        },
        {
            "category": "sweetshop",
            "lat": 24.985972,
            "lng": 121.4306848,
            "name": "維欣食品",
            "address": null,
            "status": "verified",
            "region": "新北市板橋區",
            "confirms": 2,
            "issues": 2,
            "id": 279
        },
        {
            "category": "italian",
            "lat": 25.0765106,
            "lng": 121.3800745,
            "name": "路口",
            "address": "四維路和文化一路交叉口",
            "status": "verified",
            "region": "新北市林口區",
            "confirms": 4,
            "issues": 0,
            "id": 280
        },
        {
            "category": "hairsalon",
            "lat": 23.95187,
            "lng": 120.5680187,
            "name": null,
            "address": "員林市惠明街196巷45號",
            "status": "verified",
            "region": "彰化縣員林市",
            "confirms": 0,
            "issues": 0,
            "id": 281
        },
        {
            "category": "forest",
            "lat": 23.9551326,
            "lng": 120.6920021,
            "name": "路邊廁所",
            "address": "公廁前有一段路都是森林",
            "status": "verified",
            "region": "南投縣南投市",
            "confirms": 1,
            "issues": 0,
            "id": 282
        },
        {
            "category": "forest",
            "lat": 24.99139,
            "lng": 121.345119,
            "name": null,
            "address": null,
            "status": "verified",
            "region": "桃園市龜山區",
            "confirms": 2,
            "issues": 0,
            "id": 283
        },
        {
            "category": "laundry",
            "lat": 24.9929536,
            "lng": 121.2923479,
            "name": null,
            "address": null,
            "status": "verified",
            "region": "桃園市桃園區",
            "confirms": 1,
            "issues": 0,
            "id": 284
        },
        {
            "category": "waterside",
            "lat": 24.119606,
            "lng": 120.700478,
            "name": "擬餌",
            "address": "台中市大里區環東中路五段",
            "status": "verified",
            "region": "台中市大里區",
            "confirms": 0,
            "issues": 0,
            "id": 285
        },
        {
            "category": "sushi",
            "lat": 25.012475,
            "lng": 121.454758,
            "name": null,
            "address": null,
            "status": "verified",
            "region": "新北市板橋區",
            "confirms": 3,
            "issues": 0,
            "id": 286
        },
        {
            "category": "pharmacy",
            "lat": 24.134096,
            "lng": 120.705706,
            "name": "牙刷",
            "address": "台中市東區十甲東路，帝竹薑母鴨附近",
            "status": "verified",
            "region": "台中市東區",
            "confirms": 0,
            "issues": 0,
            "id": 287
        },
        {
            "category": "restaurant",
            "lat": 24.99804,
            "lng": 121.504475,
            "name": null,
            "address": null,
            "status": "verified",
            "region": "新北市中和",
            "confirms": 0,
            "issues": 0,
            "id": 288
        },
        {
            "category": "roadside",
            "lat": 24.998251,
            "lng": 121.504622,
            "name": null,
            "address": null,
            "status": "verified",
            "region": "新北市中和",
            "confirms": 0,
            "issues": 0,
            "id": 289
        },
        {
            "category": "electronics",
            "lat": 24.998617,
            "lng": 121.50489,
            "name": null,
            "address": null,
            "status": "verified",
            "region": "新北市中和",
            "confirms": 0,
            "issues": 1,
            "id": 290
        },
        {
            "category": "postoffice",
            "lat": 23.457839,
            "lng": 120.289632,
            "name": "朴子祥和郵局",
            "address": "郵局前面到對面馬路的人行道",
            "status": "verified",
            "region": "嘉義縣朴子市",
            "confirms": 0,
            "issues": 0,
            "id": 291
        },
        {
            "category": "park",
            "lat": 24.454334,
            "lng": 121.802459,
            "name": "海岸大橋附近",
            "address": null,
            "status": "verified",
            "region": "宜蘭南澳",
            "confirms": 0,
            "issues": 0,
            "id": 292
        },
        {
            "category": "park",
            "lat": 24.455954,
            "lng": 121.803589,
            "name": "南澳路邊電塔",
            "address": null,
            "status": "verified",
            "region": "宜蘭",
            "confirms": 0,
            "issues": 0,
            "id": 293
        },
        {
            "category": "station",
            "lat": 25.085318,
            "lng": 121.52459,
            "name": "北藝",
            "address": "北藝中心一樓4號門",
            "status": "verified",
            "region": "台北市士林區",
            "confirms": 0,
            "issues": 0,
            "id": 294
        },
        {
            "category": "waterside",
            "lat": 25.0863647,
            "lng": 121.5130327,
            "name": "在百齡左岸河濱公園，靠近社子",
            "address": "最靠水邊的停車場",
            "status": "verified",
            "region": "台北市",
            "confirms": 0,
            "issues": 0,
            "id": 295
        },
        {
            "category": "waterside",
            "lat": 25.099053,
            "lng": 121.710082,
            "name": "一般住家道路",
            "address": "31號附近",
            "status": "verified",
            "region": "基隆市七堵區",
            "confirms": 0,
            "issues": 0,
            "id": 296
        },
        {
            "category": "restaurant",
            "lat": 23.900328,
            "lng": 120.538028,
            "name": "肇天宮旁路上",
            "address": "福德巷547號",
            "status": "verified",
            "region": "彰化縣田尾鄉",
            "confirms": 0,
            "issues": 0,
            "id": 297
        },
        {
            "category": "library",
            "lat": 23.89254,
            "lng": 120.526638,
            "name": "省錢超市後面的路",
            "address": "公所路上",
            "status": "verified",
            "region": "彰化縣田尾鄉",
            "confirms": 0,
            "issues": 0,
            "id": 298
        },
        {
            "category": "waterside",
            "lat": 25.039434,
            "lng": 121.517281,
            "name": "台北賓館",
            "address": null,
            "status": "verified",
            "region": "台北市中正區",
            "confirms": 0,
            "issues": 0,
            "id": 299
        },
        {
            "category": "hotel",
            "lat": 22.760045,
            "lng": 121.091018,
            "name": "旅行博物館",
            "address": "博物館路1號",
            "status": "verified",
            "region": "臺東縣",
            "confirms": 0,
            "issues": 0,
            "id": 300
        },
        {
            "category": "waterside",
            "lat": 22.9900286,
            "lng": 120.2037066,
            "name": "孔廟西大成坊",
            "address": "孔廟",
            "status": "verified",
            "region": "台南市",
            "confirms": 0,
            "issues": 0,
            "id": 301
        },
        {
            "category": "restaurant",
            "lat": 25.0688347,
            "lng": 121.3591821,
            "name": "泰蝦PA滑水道泰國蝦吃到飽",
            "address": null,
            "status": "verified",
            "region": "新北市",
            "confirms": 0,
            "issues": 0,
            "id": 302
        },
        {
            "category": "postoffice",
            "lat": 22,
            "lng": 120,
            "name": "內埔郵局",
            "address": "內埔鄉文化路",
            "status": "verified",
            "region": "屏東縣",
            "confirms": 0,
            "issues": 0,
            "id": 303
        },
        {
            "category": "university",
            "lat": 25.0863729,
            "lng": 121.4699031,
            "name": "168Parking",
            "address": "247新北市蘆洲區保和街57-47號",
            "status": "verified",
            "region": "新北市蘆洲區",
            "confirms": 4,
            "issues": 0,
            "id": 304
        },
        {
            "category": "university",
            "lat": 25.0193868,
            "lng": 121.5353111,
            "name": "臺大",
            "address": "操場",
            "status": "verified",
            "region": "台北市",
            "confirms": 4,
            "issues": 0,
            "id": 305
        },
        {
            "category": "laundry",
            "lat": 23.0105119,
            "lng": 120.2450743,
            "name": "高典衛浴",
            "address": null,
            "status": "verified",
            "region": "台南市永康區",
            "confirms": 1,
            "issues": 0,
            "id": 306
        },
        {
            "category": "hamburger",
            "lat": 22.6796421,
            "lng": 120.4969113,
            "name": "拉亞漢堡屏東自由店騎樓",
            "address": "屏東縣屏東市自由路357-2號",
            "status": "verified",
            "region": "屏東市",
            "confirms": 1,
            "issues": 0,
            "id": 307
        },
        {
            "category": "cafe",
            "lat": 25.0147721,
            "lng": 121.3133405,
            "name": "民有三街580號",
            "address": null,
            "status": "verified",
            "region": "桃園市",
            "confirms": 0,
            "issues": 0,
            "id": 308
        },
        {
            "category": "restaurant",
            "lat": 24.113324,
            "lng": 120.660532,
            "name": "台中高工實習工廠",
            "address": "台中市南區工學六街",
            "status": "verified",
            "region": "台中市南區",
            "confirms": 1,
            "issues": 0,
            "id": 309
        },
        {
            "category": "forest",
            "lat": 25.011274,
            "lng": 121.448702,
            "name": "大觀國中",
            "address": null,
            "status": "verified",
            "region": "新北市",
            "confirms": 0,
            "issues": 0,
            "id": 310
        },